,name,formatted_address,website,rating,lat,lng,distance_Lerma,distance_Florencia,distance_Fortuna,distance_Santa_Fe,distance_Tlalpan
0,Harley-Davidson® Toluca,"Carretera Toluca - México Km 43.5 Ortíz Rubio, 52740 Ocoyoacac, Méx., Mexico",http://hogtolucachapter.com.mx/,4.5,19.285819500000002,-99.4551249,3.200535814862786,34.01749002513781,40.291935655964345,23.380484468008298,29.308466475244014
1,Pontiac Gmc Tollocan,"CD de México Toluca KM 46, Ocoyoacac, Col Juárez, 52740 Mexico, Méx., Mexico",http://www.buickgmctollocan.com.mx/,4.2,19.2834948,-99.47229190000002,1.4030034156892435,35.747245988997676,41.95263111462909,25.12410371139264,31.112414552717613
2,German Centre Mexico,"Av Sta Fe 170, Santa Fe, Zedec Sta Fé, Álvaro Obregón, 01376 Ciudad de México, CDMX, Mexico",http://www.germancentre.mx/,4.5,19.366758899999997,-99.2605814,25.484454733573383,11.801941090938843,18.61518094600439,1.3249054530613715,12.748885525031557
3,Mazda Ral,"Periferico Sur 6611, San Juan Tepepan, Xochimilco, 16020 Ciudad de México, CDMX, Mexico",https://www.mazda.mx/distribuidores/mazda-ral,4.3,19.281704,-99.13579,36.66836120369782,16.180811341011008,22.359966945111193,16.36232484627351,4.2651685941489355
4,Distrubuidora Chevrolet S.A. de C.V.,"D, Anillo Perif. 6611, Santa María Tepepan, Xochimilco, 16020 Ciudad de México, CDMX, Mexico",,4.0,19.2819155,-99.13714540000001,36.52609736190194,16.130089850328545,22.338753346513695,16.23870088331293,4.121614097921895
5,BMW Lerma Motors,"Carr Toluca - México Km. 47.5, Amomolulco, 52005 Lerma de Villada, Méx., Mexico",https://www.bmw.com.mx/es/distribuidores/lerma_motors.html,4.5,19.282529999999998,-99.482344,0.4934171527715963,36.74537084224357,42.908300974982,26.132402116066686,32.16943913400034
6,PF TOLLOCAN Buick GMC Cadillac Tollocán,"Carr Toluca - México Km. 46, Col Juárez, 52740 Ocoyoacac, Méx., Mexico",http://www.buickgmctollocan.com.mx/,4.4,19.2834419,-99.4723324,1.3968300492944041,35.75364114196011,41.959341699439896,25.130402524624625,31.116685956373306
7,Continental Seminuevos Ocoyoacac,"Carr Toluca - México 520, Lerma de Villada, Méx., Mexico",https://www.seminuevos.com/dealers-profile/continental-automotriz-de-metepec/7320,3.2,19.282915600000003,-99.4692611,1.6823920482674164,35.489668587677706,41.716804422266215,24.861336832827234,30.794059151518024
8,globalcarmx,"Coapanoaya, 52740 Ocoyoacac, Méx., Mexico",,4.6,19.283282999999997,-99.464555,2.1707880522513334,35.0288112625985,41.27736635380384,24.396064877115165,30.29923739609898
9,Planet Cars,"Carretera Toluca - México Km 44.5, La Campana, 52743 Ocoyoacac, Méx., Mexico",,1.0,19.2848829,-99.4578471,2.8977591638083537,34.319546398849845,40.58845329624643,23.683297109620163,29.594122036480353
10,Mercedes-Benz Star Haus Seminuevos,"Calle Vicente Fox Quesada, La Estacion, 52000 Lerma de Villada, Méx., Mexico",https://www.mercedes-benz-starhaus.com.mx/,4.0,19.2825081,-99.516715,3.4011588987593866,40.03830826953744,46.0340237379651,29.47705682670705,35.7822380949976
11,Autos Clasicos,"Km 43, Carr Toluca - México, Ortiz Rubio, 52740 Ocoyoacac, Méx., Mexico",,4.9,19.2863083,-99.452697,3.461191756022608,33.76557168275001,40.04851878199896,23.12714117973894,29.053672180246107
12,Astrocamiones,"Carretera México - Toluca Km. 50.5, La estacion, Col. La Estación en Lerma, 52000 Lerma de Villada, Méx., Mexico",http://www.astrocamiones.com.mx/,4.2,19.2828347,-99.5178039,3.519327378029535,40.12927489530442,46.116693323037005,29.57119065879126,35.89651949799249
13,Continental Automotriz Lerma,"Mexico - Toluca Km 50.0, Los Llanitos, 52000 Lerma de Villada, Méx., Mexico",http://www.continental-lerma.com.mx/,4.2,19.2814415,-99.5192652,3.65530544728814,40.33120625140215,46.325724822834744,29.769600757506865,36.05111473374741
14,Das Welt Auto,"Carr Toluca - México Km 42.5, San Juan Coapanoaya, 52743 Ocoyoacac, Méx., Mexico",,4.3,19.2879842,-99.44518570000001,4.272110578079816,32.978733543833165,39.286856116932626,22.336424745496277,28.266384627863765
15,Volkswagen Automotriz Lerma,"Carr Toluca - México km 50, La Estacion, 52000 Lerma de Villada, Méx., Mexico",http://www.vw-lerma.com.mx/,3.8,19.2819581,-99.5140662,3.1173818486367137,39.80687417877289,45.82039246363513,29.239064954318906,35.50419775036428
16,Subacar Automotriz,"Av. Lic. Benito Juárez 569, Barrio de la Concepción, 52100 San Mateo Atenco, Méx., Mexico",http://www.subacar.com/,4.6,19.277998899999996,-99.5292408,4.691182978025305,41.44510599960988,47.42801787114203,30.88513611585426,37.10480959613424
17,Star Haus,"Carr Toluca - México Km. 50.6, La Estacion, 52000 Lerma de Villada, Méx., Mexico",http://starhaus.com.mx/,4.2,19.2823538,-99.516647,3.391951944240327,40.03848789729483,46.03605486330301,29.476475819996015,35.775185853082924
18,MINI Lerma,"Carr Toluca - México KM 47.5, Col. Amomolulco, 52005 Lerma de Villada, Méx., Mexico",http://www.lerma.mini.com.mx/,,19.2825096,-99.482341,0.4915959769967108,36.746056932986846,42.90920544902819,26.133021166805527,32.16913665631823
19,INFINITI Toluca,"Carretera Libre Federal, Carr Toluca - México KM 46, Los Encinos, 52743 Ocoyoacac, Méx., Mexico",https://www.infiniti.mx/,4.6,19.2833703,-99.4728026,1.3481671739917638,35.80153145740663,42.0054787289159,25.178677903426657,31.166130851849193
20,SEMINUEVOS PREMIUM GRUPO TOLLOCAN,"Carr Toluca - México, Ocoyoacac, Méx., Mexico",,,19.28337,-99.4725805,1.3696895047232314,35.780566869526936,41.9856824429845,25.1574366946434,31.14278555169631
21,Autofinanciamiento de Automóviles Monterrey,"Carr Toluca - México Km 48.50, La Isla, 52000 Lerma de Villada, Méx., Mexico",http://autofinauto.com/,,19.281514,-99.499342,1.5803927183417235,38.412673813509095,44.50088004317854,27.820403988235505,33.95692266767631
22,Acasa Seminuevos,"State of Mexico, Mexico",,,19.2846268,-99.4610859,2.560967432535629,34.636194873045184,40.890042620333936,24.002827635070688,29.934491483431135
23,DE BELLO VAN LERMA,"KM 44.5, Carr Toluca - México, LA CAMPANA, 52740 Ocoyoacac, Méx., Mexico",http://www.debellovan.com.mx/,3.8,19.285525699999997,-99.4574301,2.9578946645063717,34.24828723541541,40.51302660153183,23.61305126817799,29.55057590667709
24,chevrolet,"52030, Carr Toluca - México 363, San Pedro Tultepec, 52030 Lerma de Villada, Méx., Mexico",http://www.chevrolet.com.mx/,4.4,19.2803574,-99.5134862,3.0406034391446943,39.82201963951417,45.854081777570684,29.246890714637257,35.444933151574425
25,SEMINUEVOS CHEVROLET GRUPO TOLLOCAN,"Lerma, San Pedro Tultepec, 52030 San Pedro Tultepec, Méx., Mexico",,,19.2797287,-99.5135693,3.0457550516851515,39.85809670417699,45.89594872661157,29.28065734929508,35.454577133449284
26,"TOLLOCAN MOTORS, S.A. DE C.V.","Carr Toluca - México Km 16.5, El Pozito, 52000 Lerma de Villada, Méx., Mexico",http://www.chevrolettollocan.com.mx/,4.0,19.280410699999997,-99.5136184,3.054846794785227,39.83236282980708,45.86328108529023,29.25764767063878,35.45875743576417
27,Astro Camiones,"México 15, Adolfo Lopez Mateos, 52030 Lerma de Villada, Méx., Mexico",http://astrocamiones.com.mx/,4.2,19.2815501,-99.5194652,3.6772884811889215,40.345779152938846,46.33830175058386,29.784950743226982,36.0720354579764
28,Autos nuevos y seminuevos Volkswagen,"Carr Toluca - México Km 50, Lerma, 52000 Toluca México, Méx., Mexico",,3.7,19.28283,-99.520938,3.846055845803353,40.43261609767665,46.40565930690743,29.879669944790468,36.22595281053007
29,Autos RM,"Av las Torres, Calle Independencia Esquina, Barrio de la Concepción, 52100 San Mateo Atenco, Méx., Mexico",https://autosseminuevosrmg.wixsite.com/misitio,4.7,19.2794695,-99.53165890000001,4.945694169864262,41.615478970888624,47.57327707841629,31.06550766333896,37.3562791962575
30,Como Nuevos Toluca,"Calle Independencia 736 B, Barrio de la Concepción, 52105 San Mateo Atenco, Méx., Mexico",https://www.facebook.com/Como-Nuevos-Toluca-258554464660531/,4.8,19.2790515,-99.53184870000001,4.964997442593093,41.65183283997068,47.61286451576541,31.100384648075355,37.376913655351025
31,Volkswagen Salto del Agua S.A. de C.V.,"N° 70, Eje Central Lázaro Cárdenas, Obrera, Cuauhtémoc, 06800 Ciudad de México, CDMX, Mexico",http://www.vw-saltodelagua.com.mx/,4.1,19.4235867,-99.1419832,39.41442521060107,2.5728531953724554,6.716215481982624,12.888913222144218,15.875671208144501
32,Volkswagen Cresta Narvarte,"Av. Cuauhtémoc 548, Narvarte Poniente, Benito Juárez, 03020 Ciudad de México, CDMX, Mexico",http://www.vw-crestanarvarte.com.mx/,4.1,19.3986693,-99.1554623,37.05135748100243,3.1296161819731645,9.697043549519599,10.676573672652907,12.889853792548031
33,BMW Bavaria,"Av. Pdte. Masaryk 60, Chapultepec Morales, Polanco V Secc, Miguel Hidalgo, 11560 Ciudad de México, CDMX, Mexico",https://www.bmw.com.mx/es/distribuidores/grupo_bavaria.html,4.1,19.431184,-99.183642,35.849074318338936,1.9338480107534424,7.863798266859842,9.544899975879158,16.320053352119462
34,Audi Center Masaryk,"Av. Pdte. Masaryk 207, Polanco, Polanco V Secc, Miguel Hidalgo, 11550 Ciudad de México, CDMX, Mexico",http://audicentermasaryk-versalles.com/,4.1,19.4317108,-99.190156,35.27476901581406,2.600663641955065,8.299386322892074,9.059696761080033,16.424770512723782
35,RENAULT PATRIOTISMO,"Avenida Patriotismo 43, Escandón I Secc, Miguel Hidalgo, 11800 Ciudad de México, CDMX, Mexico",http://www.renaultpatriotismo.com.mx/,4.0,19.404107,-99.178208,35.0644066191067,2.617799201729231,9.997230354217999,8.553325701131445,13.305977658573523
36,SEAT Polanco,"Av Ejército Nacional No. 678, Polanco, Polanco III Secc, Miguel Hidalgo, 11570 Hidalgo, CDMX, Mexico",http://seat-polanco.com.mx/,4.3,19.4379503,-99.1969792,34.990221554477806,3.515190797078946,8.395974152696946,9.038430853277697,17.18868415906552
37,Honda Dalton Maríano Escobedo,"Calz México-Tacuba 536, Popotla, Miguel Hidalgo, 11400 mig, CDMX, Mexico",http://www.daltonhonda.com.mx/,4.1,19.4558735,-99.1799164,37.54581532775369,3.703879728733833,5.792025078011491,11.711769582488028,19.03866814897438
38,Chevrolet Delta,"Av. Cuauhtémoc 421, Roma Sur, Cuauhtémoc, 06760 Ciudad de México, CDMX, Mexico",http://www.chevroletdelta.com.mx/,4.2,19.4045219,-99.1558284,37.25235839239113,2.5213168713560354,9.079637264521173,10.801564045841491,13.522572378003465
39,Honda Dalton Polanco,"Perif. Blvd. Manuel Ávila Camacho 83, Polanco, Lomas de Chapultepec III Secc, Miguel Hidalgo, 11000 Ciudad de México, CDMX, Mexico",http://daltonhonda.com.mx/,4.2,19.431435699999998,-99.207253,33.695061075070804,4.345933636703676,9.691799165470965,7.787025955789371,16.65035414857208
40,Best Center,"Av. Thiers 195, Anzures, Miguel Hidalgo, 11590 Ciudad de México, CDMX, Mexico",,3.0,19.4350702,-99.1803364,36.35838973128623,1.839667687850634,7.31208497425921,10.085456115730468,16.737378073971115
41,"Guía Autoprecios, S.A. de C.V.","Puente La Morena No. 63 B, Tacubaya, Miguel Hidalgo, 11870 Ciudad de México, CDMX, Mexico",http://www.autoprecios.com.mx/,,19.397709,-99.182819,34.34261832077771,3.4720325353888333,10.85068499512534,7.868992502466338,12.61483972109897
42,Grupo Inmobiliario,"Camargo 36, Hipódromo, Cuauhtémoc, 06100 Ciudad de México, CDMX, Mexico",,,19.4059126,-99.1762891,35.328705324227634,2.347921250040146,9.72617024297966,8.812491069522222,13.50434172595725
43,AZTECA PARTS,"Eje 3 Sur Doctor Morones Prieto 64, Buenos Aires, Cuauhtémoc, 06780 Ciudad de México, CDMX, Mexico",,3.5,19.4067865,-99.1473881,38.16851199320466,2.8368155941795923,8.64177333330985,11.722825276853026,13.936209654303653
44,Autos Seminuevos,"Avenida Patriotismo 271, San Pedro de los Pinos, Benito Juárez, 03800 Ciudad de México, CDMX, Mexico",http://www.auto-plaza.com.mx/,3.4,19.3945594,-99.1813152,34.35712361377512,3.709588441161681,11.084875181237841,7.929251019799979,12.258909730522829
45,Polanco Service Center SURMAN,"Bahía de la Ascensión, Verónica Anzúres, Miguel Hidalgo, 11300 Ciudad de México, CDMX, Mexico",http://www.surman.com/,4.1,19.4376892,-99.1735017,37.12775420153197,1.5930614124547329,6.621143595127921,10.826745707568781,17.02445975970916
46,Inversión Vacacional S.A. de C.V.,"Av. Thiers 195, Anzures, Miguel Hidalgo, 11590 Ciudad de México, CDMX, Mexico",http://www.alamo.com.mx/,4.0,19.435226899999996,-99.1803445,36.3658933223155,1.8509493726430266,7.299903969116766,10.095807876469804,16.754740337781257
47,ingenieria automotriz,"Manuel María Contreras 10, San Rafael, Cuauhtémoc, 06470 Ciudad de México, CDMX, Mexico",,5.0,19.442086800000002,-99.16379520000001,38.25609249900197,1.9168789595215237,5.615134849101241,11.931662843990692,17.55794438033701
48,Surtidora Montecristo,"Pedro Moreno 172, Guerrero, Cuauhtémoc, 06300 Ciudad de México, CDMX, Mexico",http://www.surtidoramontecristoautomotriz.com.mx/,4.6,19.442175,-99.147961,39.73407625310097,2.7202900168211586,4.849519931126694,13.303488460520976,17.76969164056197
49,Harada Industries México,"Av. Insurgentes Sur 527, código 2, Hipódromo, Cuauhtémoc, 03510 Benito Juárez, CDMX, Mexico",https://www.harada.com/jp/aboutus/network/area/mexico.html,,19.4019807,-99.17007120000001,35.76070893300643,2.5714215147252726,9.838597803318319,9.28763930834249,13.085470155340694
50,Arrendadora Panamericana S.A. de C.V.,"Lafontaine 323, Polanco, Polanco III Secc, Miguel Hidalgo, 11550 Ciudad de México, CDMX, Mexico",http://www.arrendadora-panamericana.com.mx/,4.0,19.436781,-99.1979803,34.83428055115246,3.56179281564546,8.5579895360266,8.871900774926182,17.074005931774938
51,Máxima,"Dr. G. Bolaños Cacho 85-B, Buenos Aires, Cuauhtémoc, 06780 Ciudad de México, CDMX, Mexico",,,19.4058179,-99.1484938,38.02094100818962,2.8353211176927284,8.767946763989984,11.581651144871989,13.806537158992903
52,Fomento Automotriz y Servicio Al Transporte,"Av. Insurgentes Sur 136, Juárez, Cuauhtémoc, 06400 Ciudad de México, CDMX, Mexico",http://www.motosfast.com/,4.0,19.444413,-99.154251,39.261941272424416,2.5057270635693945,4.87726285361306,12.89355086097091,17.91661150625668
53,Jaro Mecanica Automotriz S.A de C.V,"Santa María La Ribera 128, Cuauhtémoc, 06400 Ciudad de México, CDMX, Mexico",,5.0,19.4475484,-99.1573445,39.1392490985895,2.6773839122709897,4.736321670995631,12.836643258646719,18.222455311014603
54,Hyundai Insurgentes,"Av. Insurgentes Sur 195, Roma Nte., Cuauhtémoc, 06100 Ciudad de México, CDMX, Mexico",http://www.hyundaiherencia.com/hyundai-herencia/,4.1,19.4205782,-99.16416740000001,37.1557499645085,0.5398529375687317,7.705764624551971,10.636730458266372,15.18139440647325
55,Drivser,"Av Chapultepec 42, Centro, Cuauhtémoc, 06000 Ciudad de México, CDMX, Mexico",http://www.drivser.com,5.0,19.4262936,-99.1515007,38.628780230607326,1.5758444874972746,6.637422668322474,12.109460418501078,15.974389128173184
56,Peugeot Anzures,"Bahía de la Ascensión 31, Verónica Anzúres, Miguel Hidalgo, 11300 Ciudad de México, CDMX, Mexico",http://www.peugeotanzures.com.mx/eurosurman-anzures-distrito-federal/nuestra-ubicacion/,4.3,19.4376899,-99.1732172,37.1541094447419,1.5794413398334322,6.602026058866402,10.850309912640858,17.025079646410457
57,Surman Ford Marina,"Bahía de la Ascensión 31, Verónica Anzúres, Miguel Hidalgo, 11300 Ciudad de México, CDMX, Mexico",http://www.fordsurmanmarina.mx/,4.0,19.438233,-99.17345440000001,37.16066376825926,1.6443424907081325,6.5717670291501165,10.867912624831046,17.084734266883043
58,Mercedes-Benz,"Av. Pdte. Masaryk 42, Polanco, Polanco V Secc, Miguel Hidalgo, 11580 Ciudad de México, CDMX, Mexico",http://hermer.mx/,4.2,19.4310496,-99.1828252,35.91781781878969,1.8484792476327,7.817359534213504,9.602784738619588,16.301357729197807
59,Dodge,"Lago Xochimilco, Anáhuac I Secc, Miguel Hidalgo, 11320 Ciudad de México, CDMX, Mexico",,4.3,19.4376368,-99.1796433,36.55815621438606,1.973395198461149,7.055060849950831,10.323361075521495,17.019745530336365
60,NISSAN San Cosme,"06030, Miguel Ramos Arizpe 1, Tabacalera, Cuauhtémoc, 06030 Ciudad de México, CDMX, Mexico",https://www.nissansancosme.com.mx/promociones-de-autos-nuevos-es-mx.htm,3.9,19.4383807,-99.1523498,39.13294939241805,2.0973003237795482,5.403341854539911,12.689240444219136,17.28262850622411
61,Vende tu Auto Por Más Dinero,"Monterrey 329, Roma Sur, Cuauhtémoc, 06760 Ciudad de México, CDMX, Mexico",http://www.pormas.mx/,2.7,19.4063938,-99.1613755,36.79144057674239,2.1221644840170963,9.053190319976238,10.306188797004458,13.647999658066158
62,Monarch Honda DF FAME,"Av. Dr. Río de la Loza 45, Doctores, Cuauhtémoc, 06720 Ciudad de México, CDMX, Mexico",http://www.famemonarcadf.com/,3.8,19.425262,-99.144417,39.257144944376606,2.313041706424954,6.573578132168941,12.73096339091943,16.000845627419448
63,Ford Surman México,"Av. Dr. Río de la Loza 43, Doctores, Cuauhtémoc, 06720 Ciudad de México, CDMX, Mexico",http://www.fordsurman.mx/,4.1,19.425460100000002,-99.1433934,39.36412441936626,2.4209384496641446,6.533517652152971,12.837841809954991,16.045118888194562
64,FORD ALDEN CONDESA,"Av. Jose Vasconcelos, Av. Revolución 111, Colonia Condesa, Cuauhtémoc, 06170 Ciudad de México, CDMX, Mexico",http://fordaldentacubaya.mx/,4.1,19.4084862,-99.1835053,34.751339830034205,2.5564592084913493,9.859393054391807,8.225257623264467,13.809998906737762
65,Jaguar Masaryk,"Av. Pdte. Masaryk 211, Chapultepec Morales, Polanco V Secc, Miguel Hidalgo, 11560 Ciudad de México, CDMX, Mexico",https://retailers.jaguarmexico.com.mx/masaryk,4.2,19.431752499999998,-99.1902754,35.265981863379125,2.6140006540200145,8.305230747107876,9.05340827946331,16.430484730621657
66,Seminuevos Monterrey,"Monterrey 414, Piedad Narvarte, Benito Juárez, 03000 Ciudad de México, CDMX, Mexico",http://www.seminuevosxola.mx/,4.6,19.402181,-99.1597344,36.775124860240425,2.6173014361135603,9.442835009401065,10.336174154566093,13.206474708112264
67,NISSAN META,"Calz. Gral. Mariano Escobedo 208, Anáhuac I Secc, Miguel Hidalgo, 11320 Ciudad de México, CDMX, Mexico",http://www.nissanmeta.com/,4.0,19.4429092,-99.1829452,36.540960289254166,2.637365168719778,6.904082633084424,10.45807370881915,17.61360321888614
68,Stoner Solutions en Mexico,"Rio Mixcoac 65, primer piso., Col. Credito Constructor, Buenos Aires, Cuauhtémoc, 03940 Ciudad de México, CDMX, Mexico",,,19.4042247,-99.14581070000001,38.21862058202618,3.1557874848229313,8.895049833074642,11.807328596315356,13.697405124839817
69,"Carflex Patriotismo Autos Seminuevos, CDMX","1, Avenida Patriotismo 63, Escandón I Secc, Miguel Hidalgo, 11800 Ciudad de México, CDMX, Mexico",http://carflex.mx/oficinas/venta-seminuevos/carflex-patriotismo?utm_source=google&utm_medium=organic&utm_campaign=locations&utm_content=location,4.6,19.4032957,-99.1786123,34.9899592355483,2.7170217480883356,10.096446056671187,8.482620534230444,13.216892175377073
70,Agencia de Autos Toyota Polanco,"Lago Alberto 320, Granada, Miguel Hidalgo, 11520 Ciudad de México, CDMX, Mexico",http://www.toyotapolanco.com.mx/,4.1,19.4404068,-99.18663790000001,36.066831415671096,2.725081690287862,7.378735325321051,9.986938587996777,17.356768222686558
71,Alden Condesa,"Circuito Interior (Avenida Patriotismo) 69, Escandón I Secc, Miguel Hidalgo, 11800 Ciudad de México, CDMX, Mexico",http://fordaldentacubaya.mx/,1.5,19.403336399999997,-99.17899140000002,34.9551329456448,2.7320366749034135,10.111351473288327,8.446710837327647,13.222188760322519
72,Hyundai Patriotismo,"Avenida Patriotismo 87, Escandón I Secc, Miguel Hidalgo, 11800 Ciudad de México, CDMX, Mexico",https://www.hyundai-patriotismo.com.mx/,4.0,19.402082699999998,-99.1788927,34.91021448198633,2.8496047258850323,10.228778725536376,8.410161038384082,13.08322007307364
73,Infiniti Polanco,"Av. Presidente Masaryk Esq, Galileo 66, Polanco, Polanco IV Secc, Miguel Hidalgo, 11560 Ciudad de México, CDMX, Mexico",http://www.infinitipolanco.mx/,4.6,19.431369399999998,-99.1929318,35.001017404061265,2.8714995432618338,8.53744891107247,8.818395182152194,16.41560637555877
74,Autos Seminuevos,"Narvarte Poniente, 03020 Mexico City, CDMX, Mexico",http://www.auto-plaza.com.mx/,4.5,19.401072199999998,-99.1558119,37.113146091366346,2.8695093673608163,9.44828335901383,10.703023021788052,13.145991233973792
75,Surman Polanco,"Campos Elíseos 233, Polanco, Polanco IV Secc, Miguel Hidalgo, 11560 Ciudad de México, CDMX, Mexico",,4.5,19.427885699999997,-99.1945209,34.669779474075334,2.9670005691273076,8.923300454767606,8.43577561192494,16.051272016394716
76,NISSAN WITT BUENAVISTA,"Av. Insurgentes Nte. 266, Sta María la Ribera, Cuauhtémoc, 06400 Ciudad de México, CDMX, Mexico",http://www.nissanbuenavista.com.mx/,4.1,19.4488634,-99.15319709999999,39.5915410382247,2.9898789734917313,4.389759192243428,13.272162013288206,18.419493518795502
77,Bentley Motors Polanco,"Campos Elíseos 247, Polanco, Polanco IV Secc, Miguel Hidalgo, 11560 Ciudad de México, CDMX, Mexico",http://www.polanco.bentleymotors.com/es-MX/about-us/Find-Us/,4.9,19.4278734,-99.19507540000001,34.61792278097736,3.0247460100279193,8.966350820318905,8.391409560537884,16.056973377757775
78,Grupo Automotriz Fedor,"República de Uruguay 44, Centro Histórico de la Cdad. de México, Centro, Cuauhtémoc, 06000 Ciudad de México, CDMX, Mexico",,1.3,19.430553,-99.1380486,40.108845339979155,3.0453222118937466,5.903364399055002,13.585423232535998,16.722084678173847
79,VUHL Showroom Mexico Polanco,"Campos Elíseos 257, Polanco, Polanco IV Secc, Miguel Hidalgo, 11550 Ciudad de México, CDMX, Mexico",http://vuhlautomotive.com/,5.0,19.4278383,-99.1953134,34.59409757947899,3.0491898684098127,8.9871519586819,8.370212034555658,16.05620933329308
80,Hyundai Polanco,"Campos Elíseos 257, Polanco, Polanco IV Secc, Miguel Hidalgo, 11560 Ciudad de México, CDMX, Mexico",http://www.hyundaipolanco.com.mx/,4.4,19.4278301,-99.19533670000001,34.5915138321343,3.051528609280148,8.989552350464255,8.367785456794913,16.05561345399996
81,Robotics and Computer Mexico,"Condominio Rena, Av. Insurgentes Sur 605-1203, Nápoles, Benito Juárez, 03810 Ciudad de México, CDMX, Mexico",https://roboticarc.com/,4.6,19.397534,-99.171705,35.41664773175151,3.085184038900593,10.358710903962953,8.98863635761777,12.586120849083912
82,"EUROPEAN CARS, Av. Patriotismo 132-A","Circuito Interior, A, Avenida Patriotismo 132-A, Miguel Hidalgo, 11800 Ciudad de México, CDMX, Mexico",,4.3,19.4000707,-99.1802016,34.69698048822083,3.110647219868444,10.489981769127333,8.20920838744578,12.864195324320114
83,AUTOMOTRIZ ECHENIQUE,"Av. Cuauhtémoc 557, Narvarte Poniente, Benito Juárez, 03020 Ciudad de México, CDMX, Mexico",http://panel.soloautos.mx/plantilla/agencia/usados/253/iframe/,4.2,19.3985021,-99.1560214,36.98989577350765,3.125794479882115,9.729310240332657,10.615206869673298,12.861751804831663
84,Nutrimentos Minerales,"Laguna de Yuridia 67, Granada, Miguel Hidalgo, 11520 Ciudad de México, CDMX, Mexico",,3.0,19.441684,-99.1932582,35.536255982371706,3.3708486257937866,7.835582908916182,9.607057950554047,17.554780233802955
85,Porsche Polanco,"Alejandro Dumas 245, Polanco, Polanco IV Secc, Miguel Hidalgo, 11550 Ciudad de México, CDMX, Mexico",http://www.porsche.mx/,4.3,19.4356161,-99.1953383,35.01044563860245,3.256418494529061,8.420066226442113,8.96685937727999,16.91114374272382
86,Mazda Pasion Marina Nacional,"Av. Marina Nacional 103, Anáhuac I Secc, Miguel Hidalgo, 11320 Ciudad de México, CDMX, Mexico",,3.7,19.4504359,-99.1847537,36.79925707681499,3.4141581415297537,6.546623987112219,10.924621695941324,18.4543316426853
87,Seminuevos San Joaquin,"Av. Río San Joaquín 325, Pensil Nte., Miguel Hidalgo, 11490 Ciudad de México, CDMX, Mexico",http://www.seat-polanco.com.mx/,4.0,19.4432046,-99.1938184,35.5713607688619,3.5141472638711564,7.784898105953008,9.693776106912285,17.728258486073347
88,Direct Auto Sales,"Av. Río San Joaquín 30, Cuauhtémoc Pensil, Miguel Hidalgo, 11490 Ciudad de México, CDMX, Mexico",,4.0,19.443166899999998,-99.1938694,35.56462430853024,3.516136290837414,7.791679679892092,9.687109082827158,17.72466496988638
89,Autos Seminuevos Showcar,"Av. Río San Joaquín 30, Cuauhtémoc Pensil, Miguel Hidalgo, 11490 Ciudad de México, CDMX, Mexico",http://autosseminuevosshowcar.com/,4.4,19.443209200000002,-99.1939941,35.55576772462115,3.5295515601790997,7.799698640720947,9.682022909519388,17.730690783981185
90,AUTOS CHIC Narvarte,"La Quebrada 405, Narvarte Poniente, Benito Juárez, 03020 Ciudad de México, CDMX, Mexico",https://autoselegantesnarvarte.business.site/,3.5,19.3996155,-99.1460967,38.00832705574321,3.5258584511585123,9.40416903719397,11.659664543290466,13.194622346984811
91,Mazda Zapata Lindavista,"Calle Pte. 140 #418, Lindavista, Gustavo A. Madero, 07720 Ciudad de México, CDMX, Mexico",https://www.mazda.mx/distribuidores/mazda-zapata-lindavista,4.2,19.494176100000004,-99.1482995,42.63153360926301,7.895989666601896,1.9663512150180456,17.087678063177403,23.460004878444405
92,MYLSA (Dealer FORD),"Eje Central Lázaro Cárdenas 831, Nueva Industrial Vallejo, Gustavo A. Madero, 07700 Ciudad de México, CDMX, Mexico",http://www.fordmylsa.mx/,4.1,19.5013154,-99.14870690000001,43.04311360245955,8.655746332863366,2.5425781030602974,17.6665819251398,24.23911592786323
93,Toyota Vallejo,"Calz. Vallejo 724 A, Coltongo, Azcapotzalco, 02630 Ciudad de México, CDMX, Mexico",http://www.toyotavallejo.com.mx/,4.3,19.4840554,-99.1507271,41.801462515136514,6.7472967315782215,1.841892477158991,16.082026792151396,22.316826180108375
94,Professional Services Transportation,"Pte 116 543, Industrial Vallejo, Azcapotzalco, 02700 Ciudad de México, CDMX, Mexico",http://www.vehiculosaccidentados.com/,4.7,19.4834764,-99.1576369,41.158989765099264,6.543994464936846,2.56695202890005,15.550580394806385,22.177283253456135
95,Chrysler La Villa,"Av. Ferrocarril Hidalgo, 1002 Villa, Amp San Juan de Aragón, Gustavo A. Madero, 07470 Ciudad de México, CDMX, Mexico",http://www.chryslerlavilla.com.mx/,4.1,19.480377999999998,-99.1080926,45.42347941296979,8.670557738488496,2.6598050358577567,19.154139942129902,22.897414514853725
96,Casetas y Carrocerias San Antonio,"Calz. Vallejo 571, Magdalena de las Salinas, Gustavo A. Madero, 07760 Ciudad de México, CDMX, Mexico",http://www.casetasantonio.com.mx/,4.4,19.478368,-99.147588,41.742190554983836,6.235437238657025,1.6223063246176503,15.857116293037489,21.73526175540579
97,Autos Pullman,"Calz. de los Misterios 382, Industrial, Gustavo A. Madero, 07800 Ciudad de México, CDMX, Mexico",,,19.4687955,-99.1251054,43.23863736741963,6.51096704252654,1.8535100268004903,16.955719072679287,21.160185095499827
98,Refaccionaria Jaguar,"Granados N.39 Esquina con Calle Wagner Colonia Ex Hipódromo de Peralvillo, Ex Hipódromo de Peralvillo, Cuauhtémoc, 06250 Distrito Federal, CDMX, Mexico",,3.2,19.4553922,-99.1323981,41.8586058682972,4.9124650945596295,3.1327121520408423,15.472846309754065,19.533908581493744
99,centro refaccionario del norte,"Av. Talismán 159, Col. Estrella, Gustavo A. Madero, 07810 Ciudad de México, CDMX, Mexico",,4.3,19.4757983,-99.1131092,44.7161719469476,7.939682007264556,2.2814166452122646,18.42936903124468,22.2536586721852
100,Jr Motors,"Calz. Azcapotzalco La Villa 1059, San Bartolo Atepehuacan, Gustavo A. Madero, 07730 Ciudad de México, CDMX, Mexico",,,19.490875699999997,-99.1447288,42.74126861274009,7.645246165049447,1.4499317410027792,17.063986803603143,23.148344028620436
101,Zigma Refacciones,"Pte. 108 #559, Defensores de la República, Gustavo A. Madero, 07780 Ciudad de México, CDMX, Mexico",http://www.tiendazigmarefacciones.com/,4.5,19.4760848,-99.1458531,41.76426997546047,6.058885293778092,1.5733904408292365,15.8109007371369,21.511336137914103
102,Autocrash Vittoria,"Jade 85, Col. Estrella, Gustavo A. Madero, 07810 Ciudad de México, CDMX, Mexico",,5.0,19.4764229,-99.11606,44.47980461462218,7.774784881756731,1.9694898072523703,18.222019148286513,22.2294346995587
103,Peugeot Vallejo,"Calz. Vallejo 923, Lindavista Vallejo III Secc, Gustavo A. Madero, 07750 Ciudad de México, CDMX, Mexico",http://www.peugeotvallejo.com.mx/,4.1,19.4925063,-99.15281230000001,42.13552521585648,7.613640371182636,2.280128535385029,16.639930963930553,23.221492609322397
104,Kia Vallejo,"Av. Montevideo 493, Lindavista Vallejo III Secc, Gustavo A. Madero, 07750 Ciudad de México, CDMX, Mexico",http://dealers.kia.com/mx/vallejo,4.0,19.494628600000002,-99.15288690000001,42.26133008441158,7.8430866423634304,2.3969646644843885,16.81567525636409,23.454285782997058
105,Ficmex Fuente Intermediaria Comercializadora Mexicana,"Calle 29, Pro Hogar, Azcapotzalco, 02600 Ciudad de México, CDMX, Mexico",,4.2,19.4788113,-99.1558385,41.03604699804344,6.064998325303353,2.438438788804351,15.291484830661023,21.680853329012358
106,Security Center,"Av. Ferrocarril Hidalgo 67 esq. Circuito Interior Rio Consulado, F.C. Hidalgo, Valle Gómez, Venustiano Carranza, 15210 Ciudad de México, CDMX, Mexico",,4.5,19.4594307,-99.1222163,43.012917600112786,6.010973516730679,2.9212342930370787,16.610883788210174,20.242417984213706
107,KIA Vallejo,"Calz. Vallejo 991, Nueva Vallejo II Secc, Gustavo A. Madero, 07720 Ciudad de México, CDMX, Mexico",http://www.kiavallejo.com.mx/,4.2,19.4948633,-99.153576,42.21636704525544,7.855875177737664,2.4725551401499404,16.789943931324565,23.472651668397752
108,Volkswagen La Villa,"F.C. Hidalgo 890, Aragón La Villa(Aragón), Gustavo A. Madero, 07000 Ciudad de México, CDMX, Mexico",http://www.vw-lavilla.com.mx/,4.2,19.4776301,-99.1104411,45.05960658872491,8.281196177034222,2.4801932367258765,18.775173636597266,22.53175129586968
109,SEAT La Villa,"F.C. Hidalgo 890, Aragón La Villa(Aragón), Gustavo A. Madero, 07000 Ciudad de México, CDMX, Mexico",http://www.seat-lavilla.com.mx/,4.0,19.477586300000002,-99.1104385,45.057479306863414,8.277977259334241,2.481770276494605,18.772527155769502,22.5272211745599
110,Suzuki La Villa,"Ote. 171 107, Amp San Juan de Aragón, Gustavo A. Madero, 07470 Ciudad de México, CDMX, Mexico",https://suzukilavilla.com/,3.8,19.4775516,-99.1094636,45.14498377862297,8.348327890277458,2.5814227318938463,18.852918100521382,22.55523565543322
111,Lincoln,"Nueva Industrial Vallejo, 07700 Mexico City, CDMX, Mexico",,4.7,19.501789600000002,-99.1490675,43.04213089495971,8.699000026452277,2.6071375771079763,17.683651044415043,24.286742106639295
112,Camiones Especiales Mercedes Benz & Freightliner Vallejo,"Calz. Vallejo 820, Industrial Vallejo, Azcapotzalco, 02300 Ciudad de México, CDMX, Mexico",http://www.camionespeciales.com/,4.0,19.4955204,-99.15472940000001,42.15794611265727,7.907809031025475,2.6137859558612515,16.77039355765869,23.533040418625696
113,VALLEJO,"Calz. Vallejo 1010, Industrial Vallejo, Azcapotzalco, 02300 Ciudad de México, CDMX, Mexico",https://www.seat.mx/,4.4,19.49631,-99.1549,42.1930050678997,7.991429001731012,2.6739317056780165,16.82753651770797,23.618330100011104
114,Hyundai Vallejo,"Avenida, Calle Pte. 140 576, Industrial Vallejo, Azcapotzalco, 02300 Ciudad de México, CDMX, Mexico",http://www.hyundaivallejo.com.mx/,3.9,19.4957714,-99.15625240000001,42.04239648167459,7.912057607630615,2.7666216349900647,16.692689775368457,23.54584924177354
115,BMW Lindavista Motors,"Calz. Vallejo 1030, Industrial Vallejo, Azcapotzalco, 02300 Ciudad de México, CDMX, Mexico",https://www.bmw.com.mx/es/distribuidores/lindavista_motors.html,4.2,19.4970578,-99.15552779999999,42.18621303430885,8.063632278536588,2.7736213417846054,16.851648811380773,23.694571267436366
116,Renault Vallejo,"Calz. Vallejo 1049, Industrial Vallejo, Gustavo A. Madero, 07720 Ciudad de México, CDMX, Mexico",http://www.renaultvallejo.com.mx/,4.1,19.4985226,-99.1548272,42.339427635363926,8.234739060284031,2.8035375546036296,17.02466276239988,23.862880324104985
117,Volkswagen Alden Vallejo,"Calz. Vallejo 1042, Industrial Vallejo, Azcapotzalco, 02300 Ciudad de México, CDMX, Mexico",http://www.vw-aldenvallejo.com.mx/,4.3,19.4978368,-99.1555877,42.23048011212435,8.148118272637069,2.8258254162898857,16.9157010571775,23.779862990124254
118,buenos autos,"Neptuno 56, Nueva Industrial Vallejo, Gustavo A. Madero, 07700 Ciudad de México, CDMX, Mexico",http://www.buenosautos.com.mx/,4.1,19.5043657,-99.14887009999998,43.22311927619665,8.982260354150947,2.8201083735091412,17.919585903648947,24.57236969518929
119,MINI Lindavista,"Calle Pte. 140 No.606, Col, Industrial Vallejo, Azcapotzalco, 02300 Del. Azcapotzalco, CDMX, Mexico",http://www.lindavista.mini.com.mx/,4.3,19.4963685,-99.1576369,41.96103801614306,7.959366756738455,2.9258261239234136,16.655411599612187,23.59915617936435
120,Multiasistencia Salvamentos,"Calle Pte. 128 667, Industrial Vallejo, Azcapotzalco, 02300 Ciudad de México, CDMX, Mexico",,3.9,19.4906789,-99.1630583,41.13400247639811,7.284353626211173,3.2301784233145483,15.809188398454262,22.92998680725589
121,Chevrolet Politécnico,"Miguel Bernard 563, Siete Maravillas, Gustavo A. Madero, 07707 Ciudad de México, CDMX, Mexico",,4.3,19.5121174,-99.1408234,44.40869476149217,10.016715548616112,3.2482157794043864,19.116929210063063,25.53433653000643
122,Parabrisas,"06250 de, Adelina Patti 3, Ex Hipódromo de Peralvillo, Cuauhtémoc, 06250 Ciudad de México, CDMX, Mexico",http://www.citsa.com.mx/,3.0,19.453904,-99.1314938,41.866164212258205,4.872096227014086,3.3011473663469957,15.460758135309307,19.396706956922582
123,Splendor Carwash México,"Calle 3 Anegas 420, Siete Maravillas, Gustavo A. Madero, 07700 Ciudad de México, CDMX, Mexico",,3.4,19.515782100000003,-99.1484475,44.00045597318933,10.230481234699159,3.8978255507062554,18.953755264934347,25.832830309039615
124,Everything auction house Auction,"Av Central 209, Nueva Industrial Vallejo, Gustavo A. Madero, 07700 Ciudad de México, CDMX, Mexico",https://www.todoensubastas.com.mx/,4.0,19.512606299999998,-99.1503796,43.62841117873291,9.848435259544708,3.6754862846423553,18.550207162134967,25.461070148004268
125,Autos Suzuka,"José Vazconcelos 127, Amp. Gabriel Hernández, Gustavo A. Madero, 03510 Ciudad de México, CDMX, Mexico",,4.0,19.5064925,-99.1065287,47.048288215714344,11.001864176195742,3.7692999865768995,21.124942118884114,25.70520047140657
126,Surman México Eje Central,"Eje Central Lázaro Cárdenas 227, Doctores, Azcapotzalco, 06720 Ciudad de México, CDMX, Mexico",http://www.surman.com/,3.0,19.4485939,-99.13864190000001,40.92917685544814,3.9204213843729425,3.9261714031428148,14.510975033158761,18.653434959184892
127,Chevrolet Angar Azcapotzalco,"Av. de las Granjas 473, El Jaguey, Azcapotzalco, 02530 Ciudad de México, CDMX, Mexico",http://www.chevroletangar.com.mx/,3.8,19.482612600000003,-99.1740875,39.67375633874226,6.433104429714466,4.295545723792571,14.401164521962892,21.996062747940584
128,Volkswagen Aldyxa S.A. de C.V.,"Av. de las Granjas, Jardín Azpeitia, Azcapotzalco, 02530 Ciudad de México, CDMX, Mexico",http://www.vw-aldyxa.com.mx/,4.1,19.4816418,-99.1740769,39.6136880050951,6.326352977102457,4.298750949225197,14.314965246375886,21.88861511988573
129,Dalton Seminuevos,"Santo Tomas, 02020 Mexico City, CDMX, Mexico",http://daltonseminuevos.com.mx/,3.5,19.483023899999996,-99.174721,39.64498831292509,6.4868629462101906,4.361024828786803,14.399201592987271,22.040988985953543
130,Suzuki Vallejo,"Av. de las Granjas 420, Santo Tomas, Azcapotzalco, 02020 Ciudad de México, CDMX, Mexico",http://www.suzukivallejo.com.mx/,4.1,19.482588800000002,-99.174723,39.617383043108354,6.439164827836518,4.362310962914956,14.35995831189433,21.992824113319205
131,Servicio Profesionales al Transporte,"Av. Cuitláhuac 340, San Bernabe, Azcapotzalco, 02830 Ciudad de México, CDMX, Mexico",http://www.autooutlet.com.mx/,,19.4691486,-99.1721743,39.0148862313405,4.929270283843741,4.398044638760841,13.352933738541662,20.50897957110916
132,NISSAN GEISHA CUITLAHUAC,"Av. Cuitláhuac 3395, San Bernabe, Azcapotzalco, 02830 Ciudad de México, CDMX, Mexico",https://www.nissan.com.mx/distribuidores/#estado=9&ciudad=267,4.3,19.4686111,-99.17388890000001,38.831255254384395,4.895747247284612,4.587365796492044,13.191300455154567,20.446468303789377
133,Nissan Vallejo,"Calz. Vallejo 1040. Col, Industrial Vallejo, Azcapotzalco, 02300 Ciudad de México, CDMX, Mexico",https://www.nissanvallejo.com.mx/,4.1,19.497390399999997,-99.15530150000001,42.22676969006497,8.103473357688376,2.7735320620304735,16.895279096890118,23.733430528624226
134,AUTOS DE CALIDAD CUITLAHUAC S.A. de C.V.,"Av. Cuitláhuac #1238, Aguilera, Azcapotzalco, 02900 Ciudad de México, CDMX, Mexico",http://www.autosdecalidad.com/Inicio.html,3.7,19.4730849,-99.15396190000001,40.865196433588906,5.4868024153201,2.476554581405706,14.970367689089628,21.07121731456024
135,Servicios Corporativos Otrebla,"Calz. Vallejo 921, Nueva Vallejo II Secc, Gustavo A. Madero, 07750 • Cdad. de México, México D.F., México, Capital Federal, méxico df (0x54061076265ee841), CDMX, Mexico",,,19.5165621,-99.162113,42.90994828146109,10.151088127715413,4.740041266686287,18.220232085208092,25.79605768465028
136,Volkswagen Divol Lindavista,"Av. Insurgentes Nte. 1090, Tlacamaca, Gustavo A. Madero, 07380 Ciudad de México, CDMX, Mexico",https://www.vw-divol-lindavista.com.mx/,4.1,19.4756242,-99.1346319,42.747214074285935,6.528240800197864,0.9047883681335269,16.648452244555955,21.667976956913346
137,Nissan Kioto,"Av Instituto Politécnico Nacional No.1999, Lindavista Nte., Gustavo A. Madero, 07300 Ciudad de México, CDMX, Mexico",http://www.nissankioto.com.mx/,4.3,19.498917000000002,-99.1316157,44.38053727648639,8.96697086148277,1.6945319304609603,18.655197625616587,24.258139028964667
138,"Cintas y Adhesivos, S.A. de C.V.","Esperanza 55, Gustavo A. Madero, 07800 Gustavo A. Madero, CDMX, Mexico",,,19.475645899999996,-99.1242468,43.690305295304285,7.149711734018909,1.2931836118736926,17.48966118509545,21.916757249056623
139,Automundo Vallejo,"Calzada Vallejo No.1059, Esq. Poniente 146, Nueva Industrial Vallejo, Gustavo A. Madero, 07750 Ciudad de México, CDMX, Mexico",http://automundo.com.mx/,3.9,19.4986629,-99.1551688,42.318997156223695,8.244874832465843,2.8417090566048926,17.01487552657506,23.87497887755011
140,Honda Vallejo,"Av. Sur de Los 100 Metros 649, Nueva Industrial Vallejo, Gustavo A. Madero, 07700 Ciudad de México, CDMX, Mexico",http://www.hondavallejo.com.mx/,4.2,19.504415899999998,-99.14969640000001,43.15553999014012,8.970294231028852,2.8760449412205005,17.870343720690784,24.56786446275457
141,ISUZU CENTRAL,"Calle 12 80, Renovación, Gustavo A. Madero, 15000 Ciudad de México, CDMX, Mexico",http://www.isuzucentral.com/,3.6,19.519467499999998,-99.159983,43.28390819957187,10.48447847913485,4.858465100658876,18.61153444230905,26.130869210874874
142,Autofin,"Miguel Othón de Mendizabal Ote. 343, Patera Vallejo I Secc, Gustavo A. Madero, 07700 Ciudad de México, CDMX, Mexico",,4.0,19.505733399999997,-99.1438059,43.74496509836672,9.252577808894486,2.6835339882568077,18.37067118525354,24.79035756642461
143,Chevrolet Vallejo,"Calz. Vallejo 921, Nueva Vallejo II Secc, Gustavo A. Madero, 07750 Ciudad de México, CDMX, Mexico",http://www.chevroletvallejo.com.mx/,4.1,19.4922,-99.152348,42.156882949245734,7.589693586333678,2.2215824316169104,16.64536389734678,23.19301857008539
144,"Autos Accidentados, GRUPO ADS","Puerto Guaymas 90, El Olivo, Gustavo A. Madero, 07950 Ciudad de México, CDMX, Mexico",,4.0,19.472891399999998,-99.08719690000001,46.96288805430592,9.869068632648018,4.973946134266303,20.5181642678623,22.917469439806233
145,Auto Trade Market,"07700, Av. Sur de Los 100 Metros 639, Nueva Industrial Vallejo, Gustavo A. Madero, 07700 Ciudad de México, CDMX, Mexico",,4.0,19.5033645,-99.1497502,43.0837159680661,8.855073928786442,2.7875689092209717,17.775351097906352,24.451591193972753
146,Villautos Nam,"Ffcc Hidalgo 1002, Pueblo de Santiago Atzacoalco, Gustavo A. Madero, 07840 Ciudad de México, CDMX, Mexico",http://www.villautos.com.mx/,5.0,19.491685500000003,-99.09916190000001,46.85885822428247,10.221128096564277,3.6802397676093905,20.65756400544467,24.38486174103124
147,NISSAN VISTA HERMOSA,"Carr. México-Toluca No. 2757, Campestre Palo Alto, Cuajimalpa de Morelos, 05110 Ciudad de México, CDMX, Mexico",https://www.nissanvistahermosa.com.mx/,3.9,19.3796577,-99.2574005,26.36592063074328,10.790028285701405,17.40003903923906,0.39718357428417683,13.599451764184694
148,Toyota Santa Fe,"Juan Salvador Agraz 20, Santa Fe, Contadero, Cuajimalpa de Morelos, 05348 Ciudad de México, CDMX, Mexico",http://www.toyotasantafe.com.mx/,4.2,19.3603333,-99.27903470000001,23.42121640942502,13.82223614358868,20.519893915340155,3.1820855461193704,13.715297124668387
149,München BMW Motors Santa Fe,"Antonio Dovali Jaime 115, Santa Fe, Lomas de Sta Fé, Álvaro Obregón, 01210 Ciudad de México, CDMX, Mexico",https://www.bmw.com.mx/es/distribuidores/munchen_motors.html,4.2,19.3666968,-99.25940809999999,25.595790728212133,11.702657376800943,18.531621463660322,1.2770723284104992,12.6585646234505
150,Ford Interlomas,"Av. Magnocentro 1 San Fernando, La Herradura, 52760 Naucalpan de Juárez, Méx., Mexico",http://www.forddinastia.mx/,3.9,19.4010064,-99.2733173,26.008964278502205,11.534120474669646,17.329020911876373,3.2827957046761633,16.489775745372945
151,Chevrolet Excelencia Automotriz Cuajimalpa,"Carr. México-Toluca 5600, Lomas de Memetla, Cuajimalpa de Morelos, 05330 Ciudad de México, CDMX, Mexico",http://www.chevroletexcelenciacuajimalpa.com.mx/,3.9,19.3597272,-99.2888683,22.444625722338795,14.748565694047722,21.344997537142007,4.093897973214851,14.503810576299042
152,Volvo Cars México,"Bosques De Radiatas No. 26, Local A 4o, Bosque de Radiatas, Bosques de las Lomas, Cuajimalpa de Morelos, 05120 Ciudad de México, CDMX, Mexico",http://www.volvocars.com/mx,3.3,19.388351699999998,-99.2526427,27.234300244373433,9.919473476378677,16.392953699738484,1.2421933703732373,14.071083677598741
153,Grupo Autofin México,"Vasco de Quiroga 3800, Santa Fe, Cuajimalpa, Cuajimalpa de Morelos, 05109 Ciudad de México, CDMX, Mexico",http://www.autofin.com/,,19.377133999999998,-99.2526732,26.701482217615965,10.491136718949297,17.22121463950124,0.19981318124863795,13.072209199795443
154,De Bello Van,"Vasco de Quiroga 3800, Santa Fe, Cuajimalpa, Cuajimalpa de Morelos, 01219 Ciudad de México, CDMX, Mexico",http://debellovan.com.mx/,4.0,19.3622458,-99.2716187,24.221970525917346,13.047941696756235,19.800842930422057,2.445005545793106,13.248186025642365
155,Imola Tuning Workshop,"derma Interlomas I, Parques de la Herradura, 52750 Naucalpan de Juárez, Méx., Mexico",http://www.imolatuning.com/,,19.398905,-99.271538,26.049211922120946,11.40895342516644,17.295826450686533,2.984581724817736,16.19139439094442
156,MINI München Santa Fé,"Antonio Dovali Jaime No. 115, Santa Fe, Lomas de Sta Fé, Álvaro Obregón, 01210 Del. Álvaro Obregón, CDMX, Mexico",http://www.santafe.mini.com.mx/,4.1,19.366535100000004,-99.2594169,25.58813415520011,11.713305259003867,18.54479950990807,1.2938759144567302,12.646255129449047
157,Audi Used Cars,"Carretera Federal Mexico - Toluca 2709, Palo Alto, Campestre Palo Alto, Cuajimalpa de Morelos, 05110 Cuajimalpa de Morelos, CDMX, Mexico",http://www.chryslercuajimalpa.com.mx/,4.1,19.3807902,-99.2557478,26.576324084141092,10.57807500392077,17.18693591375172,0.4078229505306419,13.589983114139285
158,Toyota Puerta Santa Fe,"Vasco de Quiroga 2000, Santa Fe, Zedec Sta Fé, Cuajimalpa de Morelos, 01210 Ciudad de México, CDMX, Mexico",http://www.toyotapuertasantafe.com.mx/,4.3,19.377763899999998,-99.25057790000001,26.93091302725582,10.266050436078821,17.013399425929222,0.4226820854293735,12.99387046396077
159,Porsche Preowned Car Centre Santa Fe,"Avenida Vasco de Quiroga 2000, Zedec Santa Fé, Zedec Sta Fé, Álvaro Obregón, 01219 Ciudad de México, CDMX, Mexico",http://porsche-santafe.com/,4.7,19.3780496,-99.2493023,27.066204376178927,10.134691015981312,16.89466884036666,0.5597987544313898,12.939247936204145
160,Hyundai Santa Fe,"Vasco de Quiroga 2000, Santa Fe, Zedec Sta Fé, Álvaro Obregón, 01210 Ciudad de México, CDMX, Mexico",http://hyundaisantafe.com.mx/,4.1,19.3779917,-99.248834,27.10857364064846,10.095779084566415,16.863653781302503,0.6076036065595865,12.904962157084434
161,Auto Haus Volkswagen,"Carr. México-Toluca 2483, Granjas Palo Alto, Cuajimalpa de Morelos, 05110 Ciudad de México, CDMX, Mexico",http://www.vw-autohaus.com.mx/,4.4,19.383345300000002,-99.25183879999999,27.06835303064673,10.083374290154179,16.692107187962304,0.7301017613431312,13.569927478145223
162,Fame Premier S.A. de C.V.,"Juan Salvador S/n, Contadero, Cuajimalpa de Morelos, 05348 Ciudad de México, CDMX, Mexico",,5.0,19.3604255,-99.27992629999999,23.33876662271315,13.897208199399856,20.583116741944323,3.252348486819159,13.795433146710836
163,Hermer StarClass Automotive,"Vasco de Quiroga 2000, Santa Fe, Zedec Sta Fé, Álvaro Obregón, 01210 Cludad de Mexico, CDMX, Mexico",,1.0,19.367765600000002,-99.2630571,25.28751093429132,11.961295924938963,18.72635464704277,1.380007719432568,13.010220946192957
164,Lincoln Santa Fe,"Prolongacion Paseo de la Reforma 621, Santa Fe, Paseo de las Lomas, Cuajimalpa de Morelos, 01330 Ciudad de México, CDMX, Mexico",http://lincolnmylsa.mx/,4.5,19.369519,-99.26652800000001,25.029357360374892,12.173116004110792,18.862850233767148,1.5220053696430962,13.404821316156164
165,Mercedes-Benz Hermer Santa Fe,"Vasco de Quiroga 3200, Santa Fe, Centro, Álvaro Obregón, 01210 Ciudad de México, CDMX, Mexico",http://hermer.mx/,4.4,19.3666095,-99.2643678,25.110913023309624,12.14592396731279,18.91433850709163,1.5668159769645453,13.016819653565474
166,KIA Santa Fe,"Prolongacion Paseo de la Reforma 1130 Col. Cruz Manca, Santa Fe, Contadero, Cuajimalpa de Morelos, 05300 Ciudad de México, CDMX, Mexico",http://dealers.kia.com/mx/santafe,4.2,19.3625695,-99.26684200000001,24.700034074114985,12.606232793140297,19.410710298579303,2.0770547467511427,12.897002026629256
167,.a,"Av. Ibis 8, Tepeaca, Álvaro Obregón, 01550 Ciudad de México, CDMX, Mexico",,4.2,19.362035199999998,-99.2331513,27.99263547628858,9.88002193603661,17.07489060177277,2.8125967675633783,10.510368836486613
168,autos semi nuevos,"Vasco de Quiroga 3881, Santa Fe, Contadero, Cuajimalpa de Morelos, 05300 Ciudad de México, CDMX, Mexico",http://seminuevos.com/,,19.361713199999997,-99.27767390000001,23.612186170287895,13.620950050943444,20.311529476445383,2.976805600205338,13.698489455698587
169,INFINITI INTERLOMAS,"Vasco de Quiroga 3880, Lomas de Santa Fe, Contadero, Alcaldía de Cuajimalpa, 01210 Ciudad de México, CDMX, Mexico",http://www.infinitiinterlomas.mx/,4.2,19.3613785,-99.27758309999999,23.6065943802862,13.631869645328742,20.32907335692355,2.9906899058556484,13.667804631161301
170,SEAT Santa Fe,"Juan Salvador Agraz 60, Santa Fe, Contadero, Cuajimalpa de Morelos, 05109 Ciudad de México, CDMX, Mexico",http://www.seatsantafe.com.mx/,3.8,19.3589304,-99.2773968,23.52104392188627,13.757218008522628,20.496167492881213,3.14285319239025,13.484075405093572
171,Carlo`s Car,"47, Centro Comercial Interlomas, Blvrd. Interlomas 5, Bosque de las Palmas, 52760 Naucalpan de Juárez, Méx., Mexico",http://www.limpiaorg.com,,19.402085,-99.26991690000001,26.37623404960541,11.159114809933973,16.96292964269606,3.1841527792471855,16.366565633463896
172,Porsche Centre Interlomas,"Centro Urbano San Fernando, Blvd. Magnocentro 10, La Herradura, 52786 Naucalpan de Juárez, Méx., Mexico",http://www.porsche.mx/,4.6,19.4003103,-99.27289880000001,26.00656060213619,11.50938923288542,17.33265151728372,3.1947945360829655,16.402042079902976
173,Porsche,"Blvd. Magnocentro 7, Villa de las Palmas, 52787 Naucalpan de Juárez, Méx., Mexico",http://www.porsche.mx/,4.7,19.400335600000002,-99.2728905,26.008755779888542,11.507877973956834,17.33042166341871,3.1965047156037842,16.403702037569264
174,Volvo Suecia Car Bosques Santa Fe,"Juan Salvador Agraz 73, Santa Fe, Contadero, Cuajimalpa de Morelos, 05348 Ciudad de México, CDMX, Mexico",http://sueciacarbosques.com/,4.0,19.3588683,-99.2782316,23.437242059489673,13.835224215812877,20.56565840723643,3.2146321609938355,13.549094611460156
175,Porsche Santa Fe,"Carr. México-Toluca 5420, La Rosita, El Yaqui, Cuajimalpa de Morelos, 05320 Ciudad de México, CDMX, Mexico",http://www.porsche-santafe.com/,4.4,19.363038500000002,-99.2813989,23.3104820127392,13.885008521873504,20.5095630245429,3.2295816317155333,14.095724777395105
176,Mulsanne Santa Fe,"Juan Salvador Agraz 97, Las Tinajas, Cuajimalpa de Morelos, 05370 Ciudad de México, CDMX, Mexico",http://www.mulsanne.com.mx/,4.7,19.3580845,-99.27801640000001,23.425506000372447,13.862201643271716,20.607387608545682,3.2531813701673546,13.478217570746674
177,Maserati Mexico,"Juan Salvador Agraz 61, Las Tinajas, Cuajimalpa de Morelos, 05370 Ciudad de México, CDMX, Mexico",http://www.maseratimexico.com/,4.9,19.3596409,-99.2794127,23.355084101282014,13.89597148665688,20.60057711022044,3.259579766413835,13.699575111103696
178,Distribuidora Lomas Anahuac,"Blvd. Magnocentro No. 3, La Herradura, 52760 Naucalpan de Juárez, Méx., Mexico",http://www.vw-lomasanahuac.com.mx/,4.1,19.400563000000002,-99.2739803,25.92395564096869,11.613229870288727,17.414081348011702,3.2864129378886417,16.49449081949561
179,Jaguar Land Rover Interlomas,"Boulevard Magnocentro 1 San Fernando La Herradura, San Fernando, 52760 Naucalpan de Juárez, Méx., Mexico",https://retailers.jaguarmexico.com.mx/interlomas,4.6,19.4009484,-99.27398740000001,25.945535243875174,11.604098595794312,17.392196495591357,3.320433022453952,16.52836491123531
180,Audi Center Interlomas,"Blvd. Magnocentro 7, Centro Urbano, San Fernando, 52760 Naucalpan de Juárez, Méx., Mexico",http://www.audicenterinterlomas.com.mx/,4.2,19.400644800000002,-99.2746493,25.868687041849288,11.679488605280042,17.46899644638843,3.337483242649503,16.545392651211532
181,Land Rover Interlomas,"Blvd. Magnocentro 1, La Herradura, 52760 Naucalpan de Juárez, Méx., Mexico",https://retailers.landrover.com.mx/interlomas,4.2,19.3993352,-99.27630140000001,25.645035897129745,11.882214412916683,17.69288624562332,3.3424843143913847,16.5421753252751
182,Jaguar Interlomas,"Blvd. Magnocentro 1, La Herradura, 52760 Naucalpan de Juárez, Méx., Mexico",https://retailers.jaguarmexico.com.mx/interlomas,5.0,19.3993353,-99.2763019,25.644996815120365,11.882262765126267,17.692924999071465,3.3425282721880527,16.542217245033356
183,Hyundai Interlomas,"Via Magna 19, Bosque de las Palmas, 52784 Naucalpan de Juárez, Méx., Mexico",https://hyundaiinterlomas.com.mx/,4.2,19.4022308,-99.2731069,26.098567902523637,11.482123647937616,17.238941323816565,3.3794207292404326,16.582928533006825
184,Seat Interlomas - Grupo Andrade,"Blvd. Magnocentro 3, San Fernando, 52787 La Herradura, Méx., Mexico",http://seatinterlomas.com.mx/,4.0,19.400403,-99.275617,25.768021111815795,11.784566860747859,17.56953035940851,3.3823407539389607,16.58828112375943
185,PICK UPLANDIA S.A DE C.V,"Av Centenario 1002, La Martinica, Álvaro Obregón, 01619 Ciudad de México, CDMX, Mexico",http://www.pickuplandia.com/,3.7,19.3608967,-99.2267574,28.587514978421567,9.509185036718764,16.7724120186556,3.4389093103492367,10.036298478186378
186,MINI Car Dealership Interlomas,"Blvd. Magnocentro 37, La Herradura, 52765 Naucalpan de Juárez, Méx., Mexico",http://www.interlomas.mini.com.mx/,4.3,19.403918899999997,-99.27185,26.30905493133398,11.313367885298844,17.028884360446423,3.462779462886933,16.65090983371812
187,Mercedes Benz Star Haus Interlomas,"Blvd. Magnocentro, Blvrd. Interlomas 37, La Herradura, 52760 Naucalpan de Juárez, Méx., Mexico",https://www.mercedes-benz-starhaus.com.mx/,3.8,19.4043095,-99.2718088,26.335526935874455,11.300297428769998,17.002786283411925,3.4974297839044675,16.682812826261635
188,technicar,"Federal México-toluca (Prol. Paseo de La Reforma) 5407, El Molino, Cuajimalpa de Morelos, 05240 Ciudad de México, CDMX, Mexico",http://technicar.com.mx,4.3,19.3627915,-99.28603570000001,22.853754462587105,14.323737872692666,20.89906073548001,3.6743122759346822,14.464167520097979
189,BMW Autobahn,"Blvd. Magnocentro 31, San Fernando, 52765 Naucalpan de Juárez, Méx., Mexico",https://www.bmw.com.mx/es/distribuidores/autobahn_interlomas.html,4.3,19.4059402,-99.2738515,26.249904477027087,11.475959556432926,17.09514362720988,3.7640372981977515,16.95621175420367
190,Chevrolet Interlomas,"Blvd. Magnocentro 35, La Herradura, 52765 Naucalpan de Juárez, Méx., Mexico",,3.9,19.4056588,-99.274376,26.186701265867324,11.535853054510953,17.158425332719847,3.7679605787929518,16.96483332342324
191,BUICK GMC Interlomas,"Blvd. Magnocentro 35, Centro Urbano, San Fernando, 52760 Naucalpan de Juárez, Méx., Mexico",https://www.buick.com.mx/localiza-distribuidor-buick#!?searchTerm=52765&searchType=postalCode,4.2,19.405743899999997,-99.27467440000001,26.165316179710675,11.564914349508996,17.18077226574005,3.7931800231695685,16.991371334203595
192,Kia Interlomas Huixquilucan,"Blvd. Magnocentro Norte 54, Bosque de las Palmas, 52786 Naucalpan de Juárez, Méx., Mexico",http://dealers.kia.com/mx/interlomas,4.3,19.406006,-99.27511870000001,26.14159174090512,11.60549841748598,17.206607185842834,3.843331207538083,17.042804522626703
193,Honda Certificados Interlomas,"Circuito Empresarial 5, Paraje la Coronita, 52760 Huixquilucan de Degollado, Méx., Mexico",http://www.honda.mx/,4.1,19.4063169,-99.274736,26.19399933127893,11.559766302751749,17.154590033455534,3.849585667399914,17.045673115636067
194,Presition Car Service,"Calz. de las Águilas 1072, Puente Colorado, Álvaro Obregón, 01710 Alvaro Obregón, CDMX, Mexico",,,19.3484807,-99.2303021,27.822773337118395,10.801172285176591,18.111539930515942,4.082067285944009,9.12603837720272
195,Chevrolet Cuajimalpa,"Carr. México-Toluca 5600, Lomas de Memetla, Cuajimalpa de Morelos, 05330 Ciudad de México, CDMX, Mexico",http://www.chevrolet.com.mx/,4.1,19.3604878,-99.288871,22.47813049733642,14.707752104016768,21.291159352764485,4.054859248048973,14.552895829636817
196,SEMINUEVOS ÁGUILAS,"Calz. de las Águilas No. 1301, Col, Puente Colorado, Álvaro Obregón, 01730 Ciudad de México, CDMX, Mexico",http://www.seminuevosaguilas.com/,3.9,19.3482838,-99.23089990000001,27.756381694746082,10.857318680360672,18.164956165958525,4.060347488152288,9.148254568811376
197,Servicio Lincoln Santa Fe,"Cándido Avilés 14, Memetla, Cuajimalpa de Morelos, 05330 Ciudad de México, CDMX, Mexico",http://lincolnmylsa.mx/,4.8,19.3594646,-99.2886949,22.449741328450514,14.746962948415662,21.3497715343477,4.091805744886824,14.472142896614264
198,Quality Cars,"Prol. Centenario 50, Villa Verdún, Álvaro Obregón, 01810 Ciudad de México, CDMX, Mexico",,4.5,19.339833600000002,-99.263637,24.192137466033866,13.893809815034919,21.006752235216965,4.253258932834408,11.070614116234916
199,GRUPO SANTRO S DE RL DE CV,"Calz. de las Águilas 1109, San Clemente Sur, Álvaro Obregón, 01740 Ciudad de México, CDMX, Mexico",http://www.blackhorse.com.mx/,,19.3495971,-99.2246319,28.42949254418815,10.34171680708024,17.679071871502096,4.391243122271436,8.868914331585547
200,Audi Center Santa Fe,"Juan Salvador Agraz 60, Santa Fe, Contadero, Cuajimalpa de Morelos, 05109 Ciudad de México, CDMX, Mexico",http://www.audicentersantafe.com.mx/,3.6,19.3587733,-99.27726120000001,23.52768471268703,13.75441180941213,20.497378728383477,3.143303127695242,13.462143683816562
201,Lomas Ford Automotive,"Carr. México-Toluca 3006, El Molino, Cuajimalpa de Morelos, 05240 Ciudad de México, CDMX, Mexico",http://www.fordlomas.mx/,4.2,19.363826100000004,-99.2825011,23.2396090238489,13.943271559848263,20.541103877814823,3.2907513203724097,14.240630484767928
202,Acura Interlomas,"Via Magna #47, Bosque de las Palmas, 52786 Naucalpan de Juárez, Méx., Mexico",http://www.acurainterlomas.com/,4.3,19.4023485,-99.2756779,25.8757916716456,11.74295658691201,17.46289581566351,3.552094191159778,16.760181183246406
203,Toyota Xalapa,"P.º de los Tamarindos, Bosques de las Lomas, Cuajimalpa de Morelos, 05120 Ciudad de México, CDMX, Mexico",https://toyotaxalapa.com.mx/politica-de-privacidad.php,,19.3847766,-99.2558657,26.755683149091052,10.392601628810985,16.907042296955918,0.8409543114533379,13.948180220670618
204,Honda Interlomas,"Circuito Empresarial 5, Jesús del Monte, 52764 Naucalpan de Juárez, Méx., Mexico",http://www.hondainterlomas.com/,4.3,19.400615300000002,-99.2718101,26.12190488216324,11.390290701219119,17.217922041969935,3.1547855751095804,16.358141197036467
205,CBE BLINDAJES,"Prol. Av. Juárez 187, Cuajimalpa, Cuajimalpa de Morelos, 05370 Ciudad de México, CDMX, Mexico",http://www.cbe.mx/,5.0,19.3542053,-99.2927705,21.828202031451408,15.409005952991377,22.05302761276053,4.757321948269208,14.503459479019853
206,Nissan Surman Santa Fé,"Vasco de Quiroga 3880, Lomas de Santa Fe, Del. Cuajimalpa, Cuajimalpa de Morelos, 05300 Ciudad de México, CDMX, Mexico",http://www.nissansantafe.com.mx/,3.7,19.3613785,-99.27758309999999,23.6065943802862,13.631869645328742,20.32907335692355,2.9906899058556484,13.667804631161301
207,Volkswagen Monarquia Automotriz S.A. de C.V.,"Av. Insurgentes Sur 4017, Tlalpan Centro I, Tlalpan, 14400 Ciudad de México, CDMX, Mexico",http://www.vw-monarquia.com.mx/,4.4,19.2867677,-99.1754695,32.50787580077772,15.32600666977865,22.24569540353678,13.018254038010205,0.3273048288921469
208,"PICACHO AUTOMOTIVE GROUP, S.A. DE C.V.","Periferico Sur 4080, Jardines del Pedregal, Álvaro Obregón, 01900 Ciudad de México, CDMX, Mexico",http://fordpicacho.mx/,4.2,19.3071701,-99.2117877,28.84960933590793,13.881359200429282,21.212041385852316,8.968764354606492,4.531813138648718
209,"COIN autosaccidentados.com / GLAFASA, S.A. DE C.V.","San Francisco 52, Huipulco, Tlalpan, 14370 Ciudad de México, CDMX, Mexico",http://autosaccidentados.com/,4.2,19.296924399999998,-99.1462138,35.62704860916946,14.330721480130038,20.718701995330672,14.448446578296549,3.474625773615636
210,Durkin Motors S.A. de C.V.,"Av. Insurgentes Sur 3175, Insurgentes Cuicuilco, Coyoacán, 04500 Ciudad de México, CDMX, Mexico",http://www.chevroletpedregal.com.mx/,4.1,19.3089989,-99.1870017,31.461216607385605,13.016235648846475,20.146155158731677,10.369880431311481,2.995539592941574
211,Tecnology For Card And Motors Cycles México,"Santa Ana Manzana 13 Lote 16, Verano, Tlalpan, 14276 Ciudad de México, CDMX, Mexico",,,19.265748499999997,-99.2003,29.921288968864502,17.97889017730987,25.133655454880532,13.599643798352623,3.2264406886655315
212,Farrera Insurgentes,"Av. Insurgentes Sur 4386, Tlalpan Centro II, Tlalpan, 14090 Ciudad de México, CDMX, Mexico",,,19.2811408,-99.1713255,32.93271549384981,15.927758681803981,22.775785117234726,13.775908416112088,0.6065621638415934
213,Lavado de inyectores y Escaner automotriz,"Congreso 103, Tlalpan Centro II, Tlalpan, 14000 Ciudad de México, CDMX, Mexico",,4.0,19.2807869,-99.1682978,33.25069129335506,15.95985195569589,22.760651084964714,14.009947276944295,0.909747764797722
214,Semi New Suryn,"Calz. de Tlalpan 5009, Tlalpan Centro II, Tlalpan, 14000 Ciudad de México, CDMX, Mexico",,3.7,19.2818482,-99.1653639,33.560013063514674,15.841578610722902,22.596575295706515,14.123283680378819,1.1721350431562925
215,Polaris Mexico City,"Avenida Insurgentes sur #3696 Planta baja, Tlalpan, Tlalpan Centro I, Tlalpan, 14060 Ciudad de México, CDMX, Mexico",,,19.294137699999997,-99.180788,31.981738926525086,14.559045868804594,21.569520828638606,12.033762225019375,1.2256882555866029
216,MÁS AUTOS PEDREGAL,"Periferico Sur & Calle 2 Pte., Isidro Fabela, Tlalpan, 14030 Ciudad de México, CDMX, Mexico",,5.0,19.30283,-99.176105,32.53747449448032,13.556672595419684,20.521058412058547,11.65738636936868,2.0935755094793516
217,Seminuevos Tlalpan,"Periferico Sur 4809, Arenal Tepepan, Tlalpan, 14610 Ciudad de México, CDMX, Mexico",,4.2,19.2859513,-99.1495519,35.22907643132645,15.488938419591976,21.955542867743812,14.966161927458256,2.820527657316024
218,GUIZAR AUTOMOTRIZ,"Av. del Iman 808, Joyas del Pedregal, Coyoacán, 04660 Ciudad de México, CDMX, Mexico",http://www.guizarautomotriz.com/,4.3,19.3060973,-99.1614854,34.099134824005176,13.167195787238684,19.881529011623215,12.559959761372303,2.907283246333924
219,TALLER AXA: RENAULT TEPEPAN,"Periférico Sur, Arenal Tepepan, Tlalpan, 14646 Ciudad de México, CDMX, Mexico",http://axa.mx/,3.9,19.282851,-99.144104,35.79578551973376,15.904250036389344,22.260887076797587,15.620758015737147,3.3862620180347447
220,Hyundai Tepepan,"Anillo Perif. Sur 6465, Valle Escondido, Tlalpan, 14610 Ciudad de México, CDMX, Mexico",http://hyundaitepepan.mx/,4.3,19.2825378,-99.1430641,35.9046840950188,15.954994177203973,22.290158975599642,15.725241358085832,3.496850534947179
221,VW Tepepan,"Calz México-Xochimilco 5149, Coapa, Guadalupe, Tlalpan, 14388 Ciudad de México, CDMX, Mexico",http://www.vwtepepan.com.mx/,4.1,19.284853100000003,-99.1426633,35.950555919439495,15.708443941702615,22.032203963216748,15.587171906179433,3.5371305141307485
222,Urmen Motors S.A. de C.V.,"Anillo Periférico (Blvd Adolfo Ruiz Cortines) 4268, Jardines del Pedregal, Coyoacán, 04500 Ciudad de México, CDMX, Mexico",,,19.305473000000003,-99.20334,29.713112736609208,13.782496998198166,21.05855812530999,9.599922036776396,3.71085345910216
223,Autos accidentados grupo dalisa.,"Coapa, Guadalupe Tlalpan, Tlalpan, 14388 Ciudad de México, CDMX, Mexico",https://www.grupodalimo.com.mx/,4.2,19.2827901,-99.1400177,36.225197555434,15.979883135818028,22.249642214107165,15.946861460752704,3.8157665500642963
224,Chevrolet Tepepan.,"Anillo Perif. 6611, San Juan Tepepan, Xochimilco, 16020 Ciudad de México, CDMX, Mexico",,4.3,19.2817788,-99.1376291,36.4751234305829,16.135333148438388,22.354885730534175,16.209980139743156,4.071699245737407
225,Chrysler Pedregal,"Anillo Perif. Blvd. Adolfo López Mateos 4186, Jardines del Pedregal, Álvaro Obregón, 01900 Ciudad de México, CDMX, Mexico",http://www.automotores-soni.com.mx/,3.9,19.3063137,-99.2071363,29.32562730055609,13.811431891403013,21.1148184002265,9.303345696457622,4.080485994549834
226,Alfa Romeo Pedregal,"Boulevard Adolfo López Mateos 4186, Jardines del Pedregal, Álvaro Obregón, 01900 Alvaro Obregon, CDMX, Mexico",http://www.alfaromeopedregal.com.mx/,4.5,19.3063997,-99.20726040000001,29.31364420770912,13.806424088986674,21.110766714579125,9.288322670288943,4.096629344125906
227,Fiat,"Santa María Tepepan, 16020 Mexico City, CDMX, Mexico",,4.3,19.2817902,-99.1364176,36.60247457729292,16.1584586996698,22.351329520708326,16.305882248076394,4.1987633009161
228,Mitsubishi Coapa Ramsa,"Periferico Sur #6611, San, San Juan Tepepan, Xochimilco, 16020 Ciudad de México, CDMX, Mexico",http://www.mitsubishicoapa.mx/,4.2,19.281679500000003,-99.1363083,36.61386033368045,16.172721344956134,22.363410805910853,16.322574625510825,4.210938812776103
229,SEAT Pedregal,"Local 1, Anillo Perif. 4100, Jardines del Pedregal, Tlalpan, 01900 Ciudad de México, CDMX, Mexico",http://seat-pedregal.com.mx/,3.9,19.306884600000004,-99.2105368,28.97689638364954,13.866589438763384,21.19043252336856,9.062520813542994,4.405923325144222
230,Volkswagen MHA S.A. DE C.V.,"Periferico Sur 4100, Jardines del Pedregal, Álvaro Obregón, 01900 Ciudad de México, CDMX, Mexico",http://www.vw-pedregal.com.mx/,4.0,19.306863,-99.210616,28.968364421709513,13.87162495832063,21.195831879392806,9.060332198356775,4.411347734681026
231,Mazda Picacho,"Periferico Sur 4080, Jardines del Pedregal, Álvaro Obregón, 01900 Ciudad de México, CDMX, Mexico",,4.0,19.307097,-99.211309,28.898744558517656,13.871788978512065,21.199982115470927,9.001064059103093,4.485860651229718
232,Lincoln Picacho,"Periferico Sur 4080, Jardines del Pedregal, Álvaro Obregón, 01900 Ciudad de México, CDMX, Mexico",http://lincolnpicacho.mx/,4.3,19.3071552,-99.2115647,28.872728074181392,13.874885827305713,21.204455213335862,8.981956969809104,4.511601314734415
233,Infiniti Pedregal,"Av. Insurgentes Sur 3155, Jardines del Pedregal de San Ángel, Coyoacán, 04500 Ciudad de México, CDMX, Mexico",https://www.infinitipedregal.com.mx/,4.1,19.3094847,-99.1870752,31.459282622921236,12.964497061206027,20.096715840627493,10.325436347134575,3.0483085928557174
234,Fame Toyota Perisur,"Anillo Perif. 4000 Bis, Jardines del Pedregal, Álvaro Obregón, 01900 Ciudad de México, CDMX, Mexico",http://www.fameperisur.com/,4.1,19.3076801,-99.2143563,28.587523681376148,13.923623441862368,21.266769674253617,8.78703249828929,4.787266665363661
235,Auto Tianguis,"Periferico Sur 4809, Arenal Tepepan, Tlalpan, 14610 Ciudad de México, CDMX, Mexico",,3.6,19.285509100000002,-99.14924620000001,35.260157234441195,15.541267520393674,22.00185710818486,15.022931873022909,2.849118338657333
236,"Eficentrum Carso, S.A. De C.V.","Av. Insurgentes Sur 3500, Manantial Peña Pobre, Tlalpan, 14700 Ciudad de México, CDMX, Mexico",http://www.eficentrum.com/,4.3,19.2984989,-99.18350240000001,31.726231781377837,14.112347008421283,21.16956782850983,11.481090655046305,1.7827555325044468
237,KIA Pedregal FAME,"Blvd. Adolfo Ruíz Cortínes No. 4000 BIS, Jardines del Pedregal, Álvaro Obregón, 01900 Ciudad de México, CDMX, Mexico",http://www.kiapedregal.mx/,3.9,19.307980399999998,-99.2153777,28.484598901985606,13.93187700974727,21.279618736100165,8.706627163107086,4.895324778761736
238,Honda Insur,"Av de los Insurgentes Sur 4386, La Joya, Tlalpan, 14090 Ciudad de México, CDMX, Mexico",http://hondainsur.com.mx/,4.4,19.280075699999998,-99.16882779999999,33.19458063100265,16.03934743498322,22.84739968971263,14.034254011338563,0.8931958529992149
239,Nissan Torres Corzo Insur,"Av. Insurgentes Sur 3195, Insurgentes Cuicuilco, Coyoacán, 04530 Ciudad de México, CDMX, Mexico",https://insur.gtcnissan.com/,4.2,19.3083333,-99.18722220000001,31.430443235008546,13.09274270867882,20.223376542940485,10.407949390644841,2.9363661609061076
240,Lince Automotriz,"Prol. División del Nte. 1969 B, Coapa, Ex de San Juan de Dios, Tlalpan, 14387 Ciudad de México, CDMX, Mexico",https://www.linceautomotriz.com/,4.4,19.2887145,-99.1289939,37.39702023553101,15.5858152174239,21.586758403011938,16.43890278276891,5.000640350618913
241,FIAT CHRYSLER -Ramsa Motors,"Anillo Perif. 6611-c, San Juan Tepepan, Xochimilco, 16020 Ciudad de México, CDMX, Mexico",https://autoangartepepan.mx/,3.8,19.281986399999997,-99.1349348,36.75852242573961,16.168332813210842,22.327789421961896,16.410861376565506,4.353264577179486
242,Das Weltauto.,"Av. Insurgentes Sur 4031, Sta Úrsula Xitla, Tlalpan, 14420 Ciudad de México, CDMX, Mexico",,4.3,19.2870504,-99.1754825,32.50736423505608,15.294857933790205,22.21530508798533,12.993306265167764,0.35723117447759095
243,BEST MOTORS,"Av de los Insurgentes Sur 4030, Tlalpan, 14000 Ciudad de México, CDMX, Mexico",,,19.2869572,-99.1748724,32.571182833254554,15.301309143795985,22.212690657685236,13.042313054094537,0.36837388442206037
244,Camiones Gr,"Av. Insurgentes Sur 4030, Tlalpan Centro II, Tlalpan, 14000 Ciudad de México, CDMX, Mexico",,,19.2869704,-99.1748745,32.5710022661643,15.299863192519103,22.211301610159964,13.04105100845014,0.36961928176049097
245,Mazda La Joya,"Av. Insurgentes Sur 4166, La Joya, Tlalpan, 14090 Ciudad de México, CDMX, Mexico",,4.4,19.281003100000003,-99.1711233,32.9538576604797,15.94232353205344,22.787066280551013,13.80117984577047,0.6326140797084555
246,TALLER AXA HONDA INSUR,"Av de los Insurgentes Sur 4386, Tlalpan, 14090 Ciudad de México, CDMX, Mexico",,,19.2801121,-99.1689034,33.186650037790315,16.03544490832769,22.844727783186784,14.026064266778135,0.8842893328139102
247,Seminuevos Gran Sur,"Av. Insurgentes Sur # 3733, Tlalpan, Miguel Hidalgo, 14410 Ciudad de México, CDMX, Mexico",,,19.2931506,-99.1795874,32.102192848771935,14.655303288018347,21.647084786062454,12.198652387703838,1.07883954065757
248,Auryn autos Sur,"Calz. de Tlalpan 5009, Tlalpan Centro II, Tlalpan, 14000 Ciudad de México, CDMX, Mexico",http://www.surynautos.com/,,19.2817959,-99.1653041,33.566242936351806,15.847413866625937,22.60136102654071,14.131785830921391,1.1794397553941014
249,Ramsa Motors,"Avenida San Fernando 557, Peña Pobre, San Fernando, Tlalpan, 14060 Tlalpan, CDMX, Mexico",,,19.2955658,-99.18006329999999,32.0665180825293,14.394048916551068,21.398123071151232,11.962967467111785,1.3486703891496494
250,Autos y Camionetas El Dolar S.A.,"Cristóbal Colón 742 Oriente, Chimalcoyoc, Xochimilco, 64000 Ciudad de México, CDMX, Mexico",,,19.2737978,-99.1672598,33.36393874368549,16.732540474149186,23.507582490361237,14.676441147819963,1.4690077340597
251,benny verificaciones,"n colonia, Volcán Chocai 2, Mirador 1a. Sección, Mirador 1ra Secc, Tlalpan, 14478 Ciudad de México, CDMX, Mexico",,4.2,19.2682487,-99.1757132,32.49192888021615,17.373926660126024,24.262586632779794,14.640311065734256,1.7356157119084623
252,Autos,"Villas del Pedregal, 04700 Mexico City, CDMX, Mexico",,,19.3031358,-99.1756937,32.58332942563467,13.519740768173191,20.47857183438518,11.664142895818868,2.1282801972873253
253,Grupo Dalisa,"Periferico Sur 5159, Guadalupe, Tlalpan, 04700 Ciudad de México, CDMX, Mexico",https://www.grupodalimo.com.mx/,,19.303161199999998,-99.1772961,32.415725587369614,13.530088151590695,20.51318944913503,11.543114149384667,2.1327089540563695
254,Operadora Cever Sa De Cv,"Anillo Perif. 5268, Villas del Pedregal, Coyoacán, 04539 Ciudad de México, CDMX, Mexico",,,19.3030549,-99.1735481,32.807339635211335,13.514342433809896,20.439376815549455,11.831619430120849,2.138025897329229
255,SEMINUEVOS SAN PEDRO,"Violeta #9, San Pedro Mártir, Tlalpan, 14650 Ciudad de México, CDMX, Mexico",,,19.2671706,-99.1657246,33.545692326459665,17.466079565915344,24.209599484635504,15.353593625454836,2.1616158672227277
256,Autos MADESA,"Ampl. Miguel Fernando Beltrán 17, Miguel Hidalgo 2da Secc, Miguel Hidalgo, 14250 Ciudad de México, CDMX, Mexico",http://autosmadesa.com/,,19.280658,-99.197616,30.16890469038209,16.30535530681568,23.471112718505328,12.256238117309602,2.269466993161803
257,surmotorseminuevos.mx,"Periferico Sur 4809, Arenal Tepepan, Tlalpan, 14610 Ciudad de México, CDMX, Mexico",https://www.surmotorsseminuevos.mx/,,19.3012422,-99.1636551,33.828487483181746,13.697468860842756,20.447523142739787,12.732088853624257,2.3332442840075145
258,PERIAUTOS,"Periferico Sur 7455, Xochimilco, Tlalpan, 04739 Ciudad de México, CDMX, Mexico",,3.0,19.3010447,-99.1623176,33.96710227476301,13.723041147436334,20.447620487030402,12.85222191661369,2.3987705440228617
259,Mitsubishi Coapa,"Av. Periférico Sur #6611-C, y ZONA METROPOLITANA, San Juan Tepepan, Tlalpan, 16020 Ciudad de México, CDMX, Mexico",http://mitsubishi-coapa.mx/,,19.3010447,-99.1623176,33.96710227476301,13.723041147436334,20.447620487030402,12.85222191661369,2.3987705440228617
260,Autos La Libre,"Pueblo Quieto, 04739 Mexico City, CDMX, Mexico",,,19.3006102,-99.16038950000001,34.16580935473264,13.778971542879487,20.46591935425561,13.036977483598491,2.4921445906658426
261,Autofin,"Local 121C, Anillo Perif. 5550, Pedregal de Carrasco, Tlalpan, 04700 Ciudad de México, CDMX, Mexico",,3.5,19.306293,-99.16558,33.67244434012541,13.135553896029862,19.929020899862014,12.213946156275302,2.721051410032573
262,seminuevos vema,"Periferico Sur 4809 arenal tepepan deleg, Arenal Tepepan, Tlalpan, 14610 Ciudad de México, CDMX, Mexico",http://www.seminuevosvema.com.mx/,5.0,19.285523,-99.1487461,35.312743865280886,15.545934721958155,21.996357005281432,15.060650726930424,2.9016796323420797
263,Autos compra,"Arenal Tepepan, Tlalpan, 14610 Ciudad de México, CDMX, Mexico",,,19.2853335,-99.14827259999998,35.3620773214278,15.57278054085758,22.01363937686417,15.111550971229304,2.950171416762988
264,Alberto Nissan,"Av. Insurgentes Sur 3195, Insurgentes Cuicuilco, Coyoacán, 04530 Ciudad de México, CDMX, Mexico",,,19.308367800000003,-99.18723670000001,31.429324068307203,13.089231371607152,20.220138492983676,10.404112627054573,2.940476985375259
